[
    {
        "name": "acidic camera b6",
        "type": 2,
        "telephoneNumber": "(723) 611-1050",
        "picture": "assets/i/business-logo-3.png",
        "description": "Hozsugan povezib me bilsehca usu jer sodolco ulsukele muese cisli ecacez culur lic napcudu obaapazeb gerwihew di godad. Ralraleji lin lospocno zehge zaj apzeg acicuzca bihlaku boremme mesa alu radgic fuvohzak upiwodo. Gemad hi adset los bacre oguhudlek kaprim fomonos wobedfoj vudmopsob nes boh uwo leh zuodiho ekazo jumimag lajapa.",
        "businessHours": "5:00-11:00",
        "website": "http://toapi.edu//",
        "braintreeAccountId": "fake_business_6",
        "streetAddress": "413 8th Ave",
        "city": "New York",
        "state": "NY",
        "country": "US",
        "zip": "10001",
        "giftCardSeq": 37,
        "coordinates": [
            -73.9997711,
            40.7239494
        ],
        "isSubscriptionExpired": false,
        "isVerificationFeePaid": true,
        "isVerified": true,
        "_id": "55d756cf39062f3557b7ca8c"
    },
    {
        "name": "delirious downtown b1",
        "type": 2,
        "telephoneNumber": "(736) 339-2152",
        "picture": "assets/i/business-logo-1.png",
        "description": "Oro uwus ita vadicpuh semrah ajaawe vohguap zulpuvu pocuw sowpod zatuw mulocaz vodaz. Ronoiwa vu bafospib fo ibtunwa ognoz zafjuveb suj honde mahmug isa eno. So celvuzlin va ru jede abo ipo umu ovvi nu kut babigu.",
        "businessHours": "3:00-12:00",
        "website": "http://hahdukow.edu//",
        "braintreeAccountId": "fake_business_1",
        "streetAddress": "1737 Haight St",
        "city": "San Francisco",
        "state": "CA",
        "country": "US",
        "zip": "94117",
        "giftCardSeq": 33,
        "coordinates": [
            -73.9997711,
            40.7239494
        ],
        "isSubscriptionExpired": false,
        "isVerificationFeePaid": true,
        "isVerified": true,
        "_id": "55d756cf39062f3557b7ca8d"
    },
    {
        "name": "grouchy acoustics b10",
        "type": 1,
        "telephoneNumber": "(810) 851-6484",
        "picture": "assets/i/business-logo-1.png",
        "description": "Viptocuj bendueli defapus fipel jabiz upoheali wotuh idosu jefbetidi zuele cudojuce tuk mo apose do hotelim. Rivlihav hu pis potu beza fah rih bizidcuz co ja zoc tof lerwi. Epva lilepos befoju omnuze conoku alci erukana sojuniama epulo goilo lebzuzad zo wi vorakje gogtorej kev gonuahu.",
        "businessHours": "1:00-12:00",
        "website": "http://gep.gov//",
        "braintreeAccountId": null,
        "streetAddress": "2109 Polk St",
        "city": "San Francisco",
        "state": "CA",
        "country": "US",
        "zip": "94109",
        "giftCardSeq": 0,
        "coordinates": [
            -73.9997711,
            40.7239494
        ],
        "isSubscriptionExpired": false,
        "isVerificationFeePaid": false,
        "isVerified": false,
        "_id": "55d756cf39062f3557b7ca8e"
    },
    {
        "name": "funny giraffe b4",
        "type": 1,
        "telephoneNumber": "(745) 426-5621",
        "picture": "assets/i/business-logo-3.png",
        "description": "Bizhuzuh jugeted met tagvo fopfiunu hivigazat ap ocisikgub maotuir fipo okra bete gug ginmof ahne. Patafdev efi la so gaaze ufdak atesi botbizbe mehzego ugini akegi latedzur fura. Rug aj zeddadbaw ozuubika da keguhip doheov bo owogewes gu temos zumodbi hejhosu owru.",
        "businessHours": "4:00-9:00",
        "website": "http://zi.io//",
        "braintreeAccountId": "fake_business_4",
        "streetAddress": "2109 Polk St",
        "city": "San Francisco",
        "state": "CA",
        "country": "US",
        "zip": "94109",
        "giftCardSeq": 34,
        "coordinates": [
            -73.9997711,
            40.7239494
        ],
        "isSubscriptionExpired": false,
        "isVerificationFeePaid": true,
        "isVerified": true,
        "_id": "55d756cf39062f3557b7ca8f"
    },
    {
        "name": "ugly distribution b3",
        "type": 2,
        "telephoneNumber": "(605) 782-9369",
        "picture": "assets/i/business-logo-1.png",
        "description": "Poh pekon dibto rozhi kakup umu conlapdo peza lo laifuiji pev lowusobe. Nodu jah vic li valo imugepto dafuhzen hani tunkabmuk sinsajzim mo buh gauwu zob tejkar nomnip. Ewa irumju higov hoha vertes zem ku ko piwwor sec covoc sovsu zuofili uho.",
        "businessHours": "3:00-11:00",
        "website": "http://faluccag.gov//",
        "braintreeAccountId": "fake_business_3",
        "streetAddress": "2109 Polk St",
        "city": "San Francisco",
        "state": "CA",
        "country": "US",
        "zip": "94109",
        "giftCardSeq": 0,
        "coordinates": [
            -73.9997711,
            40.7239494
        ],
        "isSubscriptionExpired": false,
        "isVerificationFeePaid": true,
        "isVerified": true,
        "_id": "55d756cf39062f3557b7ca90"
    },
    {
        "name": "disastrous development b9",
        "type": 1,
        "telephoneNumber": "(704) 338-8518",
        "picture": "assets/i/business-logo-1.png",
        "description": "Izmuigo jod igvu pe edefij man bebevlif ba bopij popud vuturido muvidu lubam ruzi. De hop ze kaku doritbu decci emiwakazu gukaca fik winvirmok cot ruupa epoporuw nu civtaluj. Edu ibwu wawaomu usa naega cuctukvi mi tunvanis ru wadfito ca povelo hecvojduh no ipfil cef dubiv.",
        "businessHours": "4:00-10:00",
        "website": "http://erjiefu.org//",
        "braintreeAccountId": "fake_business_9",
        "streetAddress": "2109 Polk St",
        "city": "San Francisco",
        "state": "CA",
        "country": "US",
        "zip": "94109",
        "giftCardSeq": 36,
        "coordinates": [
            -73.9997711,
            40.7239494
        ],
        "isSubscriptionExpired": false,
        "isVerificationFeePaid": true,
        "isVerified": true,
        "_id": "55d756cf39062f3557b7ca91"
    },
    {
        "name": "hollow place b8",
        "type": 2,
        "telephoneNumber": "(919) 955-5759",
        "picture": "assets/i/business-logo-3.png",
        "description": "Sefkupoz jugow wuosona ten sos ufdod ni caka ric ma ru sig. Jaso lajtajfo fueta wapmed lujvebhav oniva lohojah huc wazgosir pozu hob geweru abezde rikuwi etigapbis. Da sumgefso huzuoh mavforev owo ve pol pojballip onpuuve kasev ruwat fewtama site.",
        "businessHours": "5:00-10:00",
        "website": "http://ju.com//",
        "braintreeAccountId": "fake_business_8",
        "streetAddress": "69 7th Ave S",
        "city": "New York",
        "state": "NY",
        "country": "US",
        "zip": "10014",
        "giftCardSeq": 37,
        "coordinates": [
            -73.9997711,
            40.7239494
        ],
        "isSubscriptionExpired": false,
        "isVerificationFeePaid": true,
        "isVerified": true,
        "_id": "55d756cf39062f3557b7ca92"
    },
    {
        "name": "flippant ornament b7",
        "type": 1,
        "telephoneNumber": "(726) 608-3771",
        "picture": "assets/i/business-logo-2.png",
        "description": "Enimol doscezsor susda birna ula mechoci eplitwe vo ogimuebi vipi ohnupa wacmuhu icfegnu recolhuf ter lev. Jekzuw unajaju ara ajpuk hajwahob fip pazepefu kisovubo mohu sivnop veh duadjo tiloz jotloum zioroil. Sukip zogma coc recpoj moteciroc unmeun kakpebdo umo mulu fucim mo joprot nebwe rolcu asihivkeb.",
        "businessHours": "1:00-11:00",
        "website": "http://lumwa.net//",
        "braintreeAccountId": "fake_business_7",
        "streetAddress": "509 Valencia St",
        "city": "San Francisco",
        "state": "CA",
        "country": "US",
        "zip": "94110",
        "giftCardSeq": 0,
        "coordinates": [
            -73.9997711,
            40.7239494
        ],
        "isSubscriptionExpired": false,
        "isVerificationFeePaid": true,
        "isVerified": true,
        "_id": "55d756cf39062f3557b7ca89"
    },
    {
        "name": "weary quiet b5",
        "type": 1,
        "telephoneNumber": "(777) 709-2542",
        "picture": "assets/i/business-logo-2.png",
        "description": "Sewhu osfocmu dut nevce sericu dognafras wuf gezuod im edcuek ojacofij ipomemwiz vu so ipuaccew idi. Acajaton uvoro ujo rurminho ero imoaloceg niz pu wida cazaj ezles sorardu. Ru roz fuwzuwwab nat ga mu ojumutes linjas kaf wi pucnip uragov si fah bahhiko relli heicga wekkin.",
        "businessHours": "4:00-11:00",
        "website": "http://ib.net//",
        "braintreeAccountId": "fake_business_5",
        "streetAddress": "509 Valencia St",
        "city": "San Francisco",
        "state": "CA",
        "country": "US",
        "zip": "94110",
        "giftCardSeq": 37,
        "coordinates": [
            -73.9997711,
            40.7239494
        ],
        "isSubscriptionExpired": false,
        "isVerificationFeePaid": true,
        "isVerified": true,
        "_id": "55d756cf39062f3557b7ca8a"
    },
    {
        "name": "acid linen b2",
        "type": 1,
        "telephoneNumber": "(388) 522-3783",
        "picture": "assets/i/business-logo-3.png",
        "description": "Ud fibmuk essispem limewdom hotegujos sowkelnut mupfaw wu pec amulput wecsahfo vo lu us kud vu. Civgi fud fared ecjer obo soin tiw sud on apuoruak hedajuw ma ijo zigisnu dadvokfop tefapoke zosdun kekotdug. Ewzeh ok pefgobgot bi nozeti eshahzo kin fojizze boj rasisoek kid le zalawoka bi disdim akomi.",
        "businessHours": "2:00-10:00",
        "website": "http://wimtep.org//",
        "braintreeAccountId": "fake_business_2",
        "streetAddress": "2109 Polk St",
        "city": "San Francisco",
        "state": "CA",
        "country": "US",
        "zip": "94109",
        "giftCardSeq": 36,
        "coordinates": [
            -73.9997711,
            40.7239494
        ],
        "isSubscriptionExpired": false,
        "isVerificationFeePaid": true,
        "isVerified": true,
        "_id": "55d756cf39062f3557b7ca8b"
    }
]
